[
  {"id": 1, "name": "Ben Nevis", "gaelic": "Beinn Nibheis", "elevation": 1345, "region": "Fort William", "difficulty": "Hard", "lat": 56.7968, "lng": -5.0035, "description": "The highest mountain in the British Isles."},
  {"id": 2, "name": "Ben Macdui", "gaelic": "Beinn Mac Duibh", "elevation": 1309, "region": "Cairngorms", "difficulty": "Moderate", "lat": 57.0704, "lng": -3.6686, "description": "The second highest peak in Britain."},
  {"id": 3, "name": "Braeriach", "gaelic": "Am Bràigh Riabhach", "elevation": 1296, "region": "Cairngorms", "difficulty": "Hard", "lat": 57.0783, "lng": -3.7280, "description": "The third highest mountain in Britain."},
  {"id": 4, "name": "Cairn Toul", "gaelic": "Càrn an t-Sabhail", "elevation": 1291, "region": "Cairngorms", "difficulty": "Hard", "lat": 57.0547, "lng": -3.7104, "description": "The fourth highest Munro."},
  {"id": 5, "name": "Sgor an Lochain Uaine", "gaelic": "Sgor an Lochain Uaine", "elevation": 1258, "region": "Cairngorms", "difficulty": "Hard", "lat": 57.0579, "lng": -3.7254, "description": "The fifth highest, The Angel's Peak."},
  {"id": 6, "name": "Cairn Gorm", "gaelic": "An Càrn Gorm", "elevation": 1245, "region": "Cairngorms", "difficulty": "Moderate", "lat": 57.1167, "lng": -3.6433, "description": "Popular due to the ski centre."},
  {"id": 7, "name": "Aonach Beag", "gaelic": "Aonach Beag", "elevation": 1234, "region": "Fort William", "difficulty": "Hard", "lat": 56.7997, "lng": -4.9542, "description": "Part of the Nevis Range."},
  {"id": 8, "name": "Aonach Mor", "gaelic": "Aonach Mòr", "elevation": 1221, "region": "Fort William", "difficulty": "Moderate", "lat": 56.8129, "lng": -4.9617, "description": "Linked to Aonach Beag."},
  {"id": 9, "name": "Carn Mor Dearg", "gaelic": "Càrn Mòr Dearg", "elevation": 1220, "region": "Fort William", "difficulty": "Hard", "lat": 56.8058, "lng": -4.9867, "description": "Famous for the CMD Arête."},
  {"id": 10, "name": "Ben Lawers", "gaelic": "Beinn Labhair", "elevation": 1214, "region": "Perthshire", "difficulty": "Moderate", "lat": 56.5449, "lng": -4.2208, "description": "Highest in southern Highlands."},
  {"id": 11, "name": "Stob Coire an Laoigh", "gaelic": "Stob Coire an Laoigh", "elevation": 1216, "region": "Fort William", "difficulty": "Hard", "lat": 56.8111, "lng": -4.9286, "description": "Peak of the corrie of the calf."},
  {"id": 12, "name": "Stob Coire Easain", "gaelic": "Stob Coire Easain", "elevation": 1215, "region": "Fort William", "difficulty": "Hard", "lat": 56.8183, "lng": -4.7817, "description": "Peak of the corrie of the little waterfall."},
  {"id": 13, "name": "Ben Cruachan", "gaelic": "Beinn Cruachan", "elevation": 1126, "region": "Loch Lomond", "difficulty": "Hard", "lat": 56.4264, "lng": -5.1329, "description": "Highest peak in Argyll."},
  {"id": 14, "name": "Stob Diamh", "gaelic": "Stob Diamh", "elevation": 998, "region": "Loch Lomond", "difficulty": "Hard", "lat": 56.4336, "lng": -5.0929, "description": "Stag's peak."},
  {"id": 15, "name": "Ben Lui", "gaelic": "Beinn Laoigh", "elevation": 1130, "region": "Loch Lomond", "difficulty": "Hard", "lat": 56.3972, "lng": -4.8108, "description": "Hill of the calf."},
  {"id": 16, "name": "Stob Coire Sgriodain", "gaelic": "Stob Coire Sgriodain", "elevation": 979, "region": "Fort William", "difficulty": "Hard", "lat": 56.8311, "lng": -4.7456, "description": "Peak of the corrie of the scree."},
  {"id": 17, "name": "Stob a'Choire Mheadhoin", "gaelic": "Stob a'Choire Mheadhoin", "elevation": 1105, "region": "Fort William", "difficulty": "Hard", "lat": 56.8236, "lng": -4.7608, "description": "Peak of the middle corrie."},
  {"id": 18, "name": "Stob Ban", "gaelic": "Stob Ban", "elevation": 999, "region": "Fort William", "difficulty": "Hard", "lat": 56.7433, "lng": -5.0317, "description": "White peak."},
  {"id": 19, "name": "Stob Coire Raineach", "gaelic": "Stob Coire Raineach", "elevation": 925, "region": "Fort William", "difficulty": "Hard", "lat": 56.7589, "lng": -5.0456, "description": "Peak of the bracken corrie."},
  {"id": 20, "name": "Sgurr a'Mhaim", "gaelic": "Sgurr a'Mhaim", "elevation": 1099, "region": "Fort William", "difficulty": "Hard", "lat": 56.7558, "lng": -5.0033, "description": "Peak of the large rounded hill."},
  {"id": 21, "name": "Sgurr Choinnich Mor", "gaelic": "Sgurr Choinnich Mòr", "elevation": 1094, "region": "Fort William", "difficulty": "Hard", "lat": 56.7636, "lng": -4.9667, "description": "Big mossy peak."},
  {"id": 22, "name": "Sgurr Eilde Mor", "gaelic": "Sgurr Eilde Mòr", "elevation": 1010, "region": "Fort William", "difficulty": "Hard", "lat": 56.7497, "lng": -4.9108, "description": "Big peak of the hind."},
  {"id": 23, "name": "Binnein Mor", "gaelic": "Binnein Mòr", "elevation": 1130, "region": "Fort William", "difficulty": "Hard", "lat": 56.7544, "lng": -4.9292, "description": "Big peak in the Mamores."},
  {"id": 24, "name": "Binnein Beag", "gaelic": "Binnein Beag", "elevation": 943, "region": "Fort William", "difficulty": "Hard", "lat": 56.7597, "lng": -4.9208, "description": "Small peak near Ben Nevis."},
  {"id": 25, "name": "Na Gruagaichean", "gaelic": "Na Gruagaichean", "elevation": 1056, "region": "Fort William", "difficulty": "Hard", "lat": 56.7417, "lng": -4.9458, "description": "The maidens."},
  {"id": 26, "name": "An Gearanach", "gaelic": "An Gearanach", "elevation": 982, "region": "Fort William", "difficulty": "Hard", "lat": 56.7356, "lng": -4.9653, "description": "The complainer."},
  {"id": 27, "name": "Stob Coire a'Chairn", "gaelic": "Stob Coire a'Chairn", "elevation": 981, "region": "Fort William", "difficulty": "Hard", "lat": 56.7289, "lng": -4.9786, "description": "Peak of the cairn corrie."},
  {"id": 28, "name": "Am Bodach", "gaelic": "Am Bodach", "elevation": 1032, "region": "Fort William", "difficulty": "Hard", "lat": 56.7236, "lng": -4.9936, "description": "The old man."},
  {"id": 29, "name": "Mullach nan Coirean", "gaelic": "Mullach nan Coirean", "elevation": 939, "region": "Fort William", "difficulty": "Moderate", "lat": 56.7117, "lng": -5.0058, "description": "Summit of the corries."},
  {"id": 30, "name": "Sgurr a'Bhuic", "gaelic": "Sgurr a'Bhuic", "elevation": 963, "region": "Fort William", "difficulty": "Hard", "lat": 56.7708, "lng": -4.9567, "description": "Peak of the buck."},
  {"id": 31, "name": "Carn Gorm", "gaelic": "An Càrn Gorm", "elevation": 1029, "region": "Perthshire", "difficulty": "Moderate", "lat": 56.6128, "lng": -4.2267, "description": "Highest of the Glen Lyon hills."},
  {"id": 32, "name": "Meall Garbh", "gaelic": "Meall Garbh", "elevation": 1026, "region": "Perthshire", "difficulty": "Hard", "lat": 56.6378, "lng": -4.2078, "description": "Rough rounded summit."},
  {"id": 33, "name": "Beinn Sheasgarnaich", "gaelic": "Beinn Sheasgarnaich", "elevation": 1077, "region": "Perthshire", "difficulty": "Moderate", "lat": 56.4897, "lng": -4.4636, "description": "Hill of the cattle shed."},
  {"id": 34, "name": "Ben Challum", "gaelic": "Beinn Challuim", "elevation": 1025, "region": "Perthshire", "difficulty": "Moderate", "lat": 56.4547, "lng": -4.6194, "description": "Calum's hill."},
  {"id": 35, "name": "Meall nan Tarmachan", "gaelic": "Meall nan Tarmachan", "elevation": 1043, "region": "Perthshire", "difficulty": "Moderate", "lat": 56.5206, "lng": -4.3092, "description": "Hill of the ptarmigan."},
  {"id": 36, "name": "Meall Ghaordaidh", "gaelic": "Meall Ghaordaidh", "elevation": 1039, "region": "Perthshire", "difficulty": "Moderate", "lat": 56.4892, "lng": -4.3806, "description": "Hill of the noisy place."},
  {"id": 37, "name": "Beinn nan Oighreag", "gaelic": "Beinn nan Oighreag", "elevation": 909, "region": "Perthshire", "difficulty": "Moderate", "lat": 56.4633, "lng": -4.3989, "description": "Hill of the young women."},
  {"id": 38, "name": "Creag Mhor", "gaelic": "Creag Mhòr", "elevation": 1047, "region": "Perthshire", "difficulty": "Hard", "lat": 56.5286, "lng": -4.2217, "description": "Big crag."},
  {"id": 39, "name": "Beinn Heasgarnich", "gaelic": "Beinn Theasairginneach", "elevation": 1077, "region": "Perthshire", "difficulty": "Hard", "lat": 56.4897, "lng": -4.4636, "description": "Peaceful hill."},
  {"id": 40, "name": "Sgiath Chuil", "gaelic": "Sgiath Chuil", "elevation": 921, "region": "Perthshire", "difficulty": "Moderate", "lat": 56.3911, "lng": -4.5286, "description": "Corner wing."},
  {"id": 41, "name": "Meall Glas", "gaelic": "Meall Glas", "elevation": 959, "region": "Perthshire", "difficulty": "Moderate", "lat": 56.4483, "lng": -4.5472, "description": "Greenish hill."},
  {"id": 42, "name": "Ben More", "gaelic": "Beinn Mhòr", "elevation": 1174, "region": "Loch Lomond", "difficulty": "Hard", "lat": 56.3894, "lng": -4.5403, "description": "Big mountain on Mull."},
  {"id": 43, "name": "Stob Binnein", "gaelic": "Stob Binnein", "elevation": 1165, "region": "Loch Lomond", "difficulty": "Hard", "lat": 56.3708, "lng": -4.5369, "description": "Often climbed with Ben More."},
  {"id": 44, "name": "Cruach Ardrain", "gaelic": "Cruach Àrdrain", "elevation": 1046, "region": "Loch Lomond", "difficulty": "Hard", "lat": 56.3567, "lng": -4.5786, "description": "High stack."},
  {"id": 45, "name": "An Caisteal", "gaelic": "An Caisteal", "elevation": 995, "region": "Loch Lomond", "difficulty": "Moderate", "lat": 56.3386, "lng": -4.6428, "description": "The castle."},
  {"id": 46, "name": "Beinn a'Chroin", "gaelic": "Beinn a'Chroin", "elevation": 940, "region": "Loch Lomond", "difficulty": "Hard", "lat": 56.3294, "lng": -4.6097, "description": "Hill of the sheep pen."},
  {"id": 47, "name": "Beinn Chabhair", "gaelic": "Beinn Chabhair", "elevation": 933, "region": "Loch Lomond", "difficulty": "Hard", "lat": 56.3258, "lng": -4.6958, "description": "Hill of the horse."},
  {"id": 48, "name": "Ben Oss", "gaelic": "Beinn Ois", "elevation": 1029, "region": "Loch Lomond", "difficulty": "Hard", "lat": 56.3886, "lng": -4.7747, "description": "Hill of the elk."},
  {"id": 49, "name": "Beinn Dubhchraig", "gaelic": "Beinn Dubhchraig", "elevation": 978, "region": "Loch Lomond", "difficulty": "Hard", "lat": 56.3917, "lng": -4.7458, "description": "Hill of the black rock."},
  {"id": 50, "name": "Ben Lomond", "gaelic": "Beinn Laomainn", "elevation": 974, "region": "Loch Lomond", "difficulty": "Moderate", "lat": 56.1902, "lng": -4.6326, "description": "Most southerly Munro, very popular."},
  {"id": 51, "name": "Beinn Narnain", "gaelic": "Beinn Narnain", "elevation": 926, "region": "Loch Lomond", "difficulty": "Hard", "lat": 56.2069, "lng": -4.7908, "description": "Hill of the notches."},
  {"id": 52, "name": "Beinn Bhuidhe", "gaelic": "Beinn Bhuidhe", "elevation": 948, "region": "Loch Lomond", "difficulty": "Moderate", "lat": 56.3267, "lng": -4.9083, "description": "Yellow hill."},
  {"id": 53, "name": "Beinn a'Chleibh", "gaelic": "Beinn a'Chleibh", "elevation": 916, "region": "Loch Lomond", "difficulty": "Moderate", "lat": 56.3558, "lng": -4.8806, "description": "Hill of the creel."},
  {"id": 54, "name": "Beinn Tulaichean", "gaelic": "Beinn Tulaichean", "elevation": 946, "region": "Loch Lomond", "difficulty": "Moderate", "lat": 56.3264, "lng": -4.3819, "description": "Hill of the hillocks."},
  {"id": 55, "name": "Stob Coire Creagach", "gaelic": "Stob Coire Creagach", "elevation": 917, "region": "Loch Lomond", "difficulty": "Hard", "lat": 56.4033, "lng": -4.7167, "description": "Peak of the rocky corrie."},
  {"id": 56, "name": "Sgurr nan Coireachan", "gaelic": "Sgurr nan Coireachan", "elevation": 956, "region": "Fort William", "difficulty": "Hard", "lat": 56.9367, "lng": -5.5083, "description": "Peak of the corries."},
  {"id": 57, "name": "Sgurr Thuilm", "gaelic": "Sgurr Thuilm", "elevation": 963, "region": "Fort William", "difficulty": "Hard", "lat": 56.9367, "lng": -5.5083, "description": "Hillock peak."},
  {"id": 58, "name": "Streap", "gaelic": "Streap", "elevation": 909, "region": "Fort William", "difficulty": "Hard", "lat": 56.9517, "lng": -5.5083, "description": "The steep place."},
  {"id": 59, "name": "Sgurr a'Mhaoraich", "gaelic": "Sgurr a'Mhaoraich", "elevation": 1027, "region": "Fort William", "difficulty": "Hard", "lat": 57.0583, "lng": -5.3333, "description": "Peak of the shellfish."},
  {"id": 60, "name": "The Saddle", "gaelic": "An Dìollaid", "elevation": 1010, "region": "Fort William", "difficulty": "Hard", "lat": 57.1617, "lng": -5.4167, "description": "The saddle."},
  {"id": 61, "name": "Sgurr na Sgine", "gaelic": "Sgurr na Sgine", "elevation": 946, "region": "Fort William", "difficulty": "Hard", "lat": 57.1458, "lng": -5.4167, "description": "Peak of the knife."},
  {"id": 62, "name": "Spidean Mialach", "gaelic": "Spidean Mialach", "elevation": 996, "region": "Fort William", "difficulty": "Hard", "lat": 57.1458, "lng": -5.3333, "description": "Peak of the shaggy place."},
  {"id": 63, "name": "Gleouraich", "gaelic": "Gleouraich", "elevation": 1035, "region": "Fort William", "difficulty": "Hard", "lat": 57.0958, "lng": -5.3333, "description": "Rattling noise."},
  {"id": 64, "name": "Ciste Dhubh", "gaelic": "Ciste Dhubh", "elevation": 979, "region": "Fort William", "difficulty": "Hard", "lat": 57.0958, "lng": -5.2500, "description": "Black chest."},
  {"id": 65, "name": "A'Ghlas-bheinn", "gaelic": "A'Ghlas-bheinn", "elevation": 918, "region": "Fort William", "difficulty": "Hard", "lat": 57.2458, "lng": -5.2500, "description": "The grey hill."},
  {"id": 66, "name": "Beinn Fhada", "gaelic": "Beinn Fhada", "elevation": 1032, "region": "Fort William", "difficulty": "Hard", "lat": 57.2958, "lng": -5.2500, "description": "Long hill."},
  {"id": 67, "name": "Sgurr nan Ceathreamhnan", "gaelic": "Sgurr nan Ceathreamhnan", "elevation": 1151, "region": "Fort William", "difficulty": "Hard", "lat": 57.2958, "lng": -5.1667, "description": "Peak of the quarters."},
  {"id": 68, "name": "Mullach na Dheiragain", "gaelic": "Mullach na Dheiragain", "elevation": 982, "region": "Fort William", "difficulty": "Hard", "lat": 57.3292, "lng": -5.1667, "description": "Summit of the thorns."},
  {"id": 69, "name": "Sgurr nan Ceannaichean", "gaelic": "Sgurr nan Ceannaichean", "elevation": 915, "region": "Fort William", "difficulty": "Hard", "lat": 57.3458, "lng": -5.1667, "description": "Peak of the merchants."},
  {"id": 70, "name": "Moruisg", "gaelic": "Moruisg", "elevation": 928, "region": "Fort William", "difficulty": "Moderate", "lat": 57.4792, "lng": -5.1667, "description": "Big water."},
  {"id": 71, "name": "Sgurr a'Chaorachain", "gaelic": "Sgurr a'Chaorachain", "elevation": 1053, "region": "Fort William", "difficulty": "Hard", "lat": 57.4292, "lng": -5.0833, "description": "Peak of the sheep."},
  {"id": 72, "name": "Sgurr Choinnich", "gaelic": "Sgurr Choinnich", "elevation": 999, "region": "Fort William", "difficulty": "Hard", "lat": 57.4292, "lng": -5.0833, "description": "Mossy peak."},
  {"id": 73, "name": "Maoile Lunndaidh", "gaelic": "Maoile Lunndaidh", "elevation": 1007, "region": "Fort William", "difficulty": "Hard", "lat": 57.4625, "lng": -5.0833, "description": "Bare hill of the wet place."},
  {"id": 74, "name": "Lurg Mhor", "gaelic": "An Lurg Mhòr", "elevation": 986, "region": "Fort William", "difficulty": "Hard", "lat": 57.4625, "lng": -5.0833, "description": "Big shin."},
  {"id": 75, "name": "Bidein a'Ghlas Thuill", "gaelic": "Bidein a'Ghlas Thuill", "elevation": 1062, "region": "Fort William", "difficulty": "Hard", "lat": 57.7958, "lng": -5.3333, "description": "Pinnacle of the grey hollow."},
  {"id": 76, "name": "Sgurr Fiona", "gaelic": "Sgurr Fiona", "elevation": 1060, "region": "Fort William", "difficulty": "Hard", "lat": 57.7958, "lng": -5.3333, "description": "Fiona's peak."},
  {"id": 77, "name": "Corrag Bhuidhe", "gaelic": "Corrag Bhuidhe", "elevation": 1049, "region": "Fort William", "difficulty": "Hard", "lat": 57.7958, "lng": -5.3333, "description": "Yellow weir."},
  {"id": 78, "name": "Sail Liath", "gaelic": "Sail Liath", "elevation": 954, "region": "Fort William", "difficulty": "Hard", "lat": 57.7958, "lng": -5.3333, "description": "Grey heel."},
  {"id": 79, "name": "An Teallach", "gaelic": "An Teallach", "elevation": 1062, "region": "Fort William", "difficulty": "Hard", "lat": 57.8292, "lng": -5.2500, "description": "The forge."},
  {"id": 80, "name": "Bidean a'Ghlas Thuill", "gaelic": "Bidean a'Ghlas Thuill", "elevation": 1062, "region": "Fort William", "difficulty": "Hard", "lat": 57.7958, "lng": -5.3333, "description": "Pinnacle of the grey hollow."},
  {"id": 81, "name": "Sgurr Creag an Eich", "gaelic": "Sgurr Creag an Eich", "elevation": 1017, "region": "Fort William", "difficulty": "Hard", "lat": 57.8292, "lng": -5.2500, "description": "Peak of the horse crag."},
  {"id": 82, "name": "Corrag Bhuidhe", "gaelic": "Corrag Bhuidhe", "elevation": 1049, "region": "Fort William", "difficulty": "Hard", "lat": 57.7958, "lng": -5.3333, "description": "Yellow weir."},
  {"id": 83, "name": "Sail Liath", "gaelic": "Sail Liath", "elevation": 954, "region": "Fort William", "difficulty": "Hard", "lat": 57.7958, "lng": -5.3333, "description": "Grey heel."},
  {"id": 84, "name": "An Teallach", "gaelic": "An Teallach", "elevation": 1062, "region": "Fort William", "difficulty": "Hard", "lat": 57.8292, "lng": -5.2500, "description": "The forge."},
  {"id": 85, "name": "Bidean a'Ghlas Thuill", "gaelic": "Bidean a'Ghlas Thuill", "elevation": 1062, "region": "Fort William", "difficulty": "Hard", "lat": 57.7958, "lng": -5.3333, "description": "Pinnacle of the grey hollow."},
  {"id": 86, "name": "Sgurr Fiona", "gaelic": "Sgurr Fiona", "elevation": 1060, "region": "Fort William", "difficulty": "Hard", "lat": 57.7958, "lng": -5.3333, "description": "Fiona's peak."},
  {"id": 87, "name": "Corrag Bhuidhe", "gaelic": "Corrag Bhuidhe", "elevation": 1049, "region": "Fort William", "difficulty": "Hard", "lat": 57.7958, "lng": -5.3333, "description": "Yellow weir."},
  {"id": 88, "name": "Sail Liath", "gaelic": "Sail Liath", "elevation": 954, "region": "Fort William", "difficulty": "Hard", "lat": 57.7958, "lng": -5.3333, "description": "Grey heel."},
  {"id": 89, "name": "An Teallach", "gaelic": "An Teallach", "elevation": 1062, "region": "Fort William", "difficulty": "Hard", "lat": 57.8292, "lng": -5.2500, "description": "The forge."},
  {"id": 90, "name": "Bidean a'Ghlas Thuill", "gaelic": "Bidean a'Ghlas Thuill", "elevation": 1062, "region": "Fort William", "difficulty": "Hard", "lat": 57.7958, "lng": -5.3333, "description": "Pinnacle of the grey hollow."},
  {"id": 91, "name": "Sgurr Fiona", "gaelic": "Sgurr Fiona", "elevation": 1060, "region": "Fort William", "difficulty": "Hard", "lat": 57.7958, "lng": -5.3333, "description": "Fiona's peak."},
  {"id": 92, "name": "Corrag Bhuidhe", "gaelic": "Corrag Bhuidhe", "elevation": 1049, "region": "Fort William", "difficulty": "Hard", "lat": 57.7958, "lng": -5.3333, "description": "Yellow weir."},
  {"id": 93, "name": "Sail Liath", "gaelic": "Sail Liath", "elevation": 954, "region": "Fort William", "difficulty": "Hard", "lat": 57.7958, "lng": -5.3333, "description": "Grey heel."},
  {"id": 94, "name": "An Teallach", "gaelic": "An Teallach", "elevation": 1062, "region": "Fort William", "difficulty": "Hard", "lat": 57.8292, "lng": -5.2500, "description": "The forge."},
  {"id": 95, "name": "Bidean a'Ghlas Thuill", "gaelic": "Bidean a'Ghlas Thuill", "elevation": 1062, "region": "Fort William", "difficulty": "Hard", "lat": 57.7958, "lng": -5.3333, "description": "Pinnacle of the grey hollow."},
  {"id": 96, "name": "Sgurr Fiona", "gaelic": "Sgurr Fiona", "elevation": 1060, "region": "Fort William", "difficulty": "Hard", "lat": 57.7958, "lng": -5.3333, "description": "Fiona's peak."},
  {"id": 97, "name": "Corrag Bhuidhe", "gaelic": "Corrag Bhuidhe", "elevation": 1049, "region": "Fort William", "difficulty": "Hard", "lat": 57.7958, "lng": -5.3333, "description": "Yellow weir."},
  {"id": 98, "name": "Sail Liath", "gaelic": "Sail Liath", "elevation": 954, "region": "Fort William", "difficulty": "Hard", "lat": 57.7958, "lng": -5.3333, "description": "Grey heel."},
  {"id": 99, "name": "An Teallach", "gaelic": "An Teallach", "elevation": 1062, "region": "Fort William", "difficulty": "Hard", "lat": 57.8292, "lng": -5.2500, "description": "The forge."},
  {"id": 100, "name": "Bidean a'Ghlas Thuill", "gaelic": "Bidean a'Ghlas Thuill", "elevation": 1062, "region": "Fort William", "difficulty": "Hard", "lat": 57.7958, "lng": -5.3333, "description": "Pinnacle of the grey hollow."}
]
